{"status":"ok","response":{"1":[{"Albert 1er":{"id":"74400610","lat":"43.6165153431063","lon":"3.87407454752208","name":"Place Albert 1er","town":"Montpellier","lines":[]}},{"Antigone":{"id":"74401726","lat":"43.6085958455429","lon":"3.8866476240206","name":"Antigone","town":"Montpellier","lines":[]}},{"Boutonnet":{"id":"74400693","lat":"43.6227119628888","lon":"3.86817771124942","name":"Boutonnet","town":"Montpellier","lines":[]}},{"Chateau D'o":{"id":"74400771","lat":"43.6314850756983","lon":"3.84287255949927","name":"Ch\u00e2teau d'\u00d4","town":"Montpellier","lines":[]}},{"Comedie":{"id":"74401665","lat":"43.6083669324149","lon":"3.87970706244691","name":"Com\u00e9die","town":"Montpellier","lines":[]}},{"Corum T1":{"id":"74400607","lat":"43.6142802818104","lon":"3.88191577851311","name":"Corum","town":"Montpellier","lines":[]}},{"Du Guesclin":{"id":"74401727","lat":"","lon":"","name":"Du Guesclin","town":"Montpellier","lines":[]}},{"Euromedecine":{"id":"74400746","lat":"43.6390920095547","lon":"3.82808319142705","name":"Eurom\u00e9decine","town":"Montpellier","lines":[]}},{"Gare St-roch T1":{"id":"74400544","lat":"43.6051626028276","lon":"3.87967353379184","name":"Gare Saint-Roch","town":"Montpellier","lines":[]}},{"Halles Paillade":{"id":"74401722","lat":"43.6275706681589","lon":"3.81748695420868","name":"Halles de la Paillade","town":"Montpellier","lines":[]}},{"Hauts De Massane":{"id":"74400922","lat":"43.636303785454","lon":"3.82276040290018","name":"Hauts de Massane","town":"Montpellier","lines":[]}},{"Hop. Lapeyronie":{"id":"74401725","lat":"43.6316604855493","lon":"3.8525879159284","name":"H\u00f4pital Lapeyronie","town":"Montpellier","lines":[]}},{"Leon Blum":{"id":"74400347","lat":"43.6091600297124","lon":"3.89014150106837","name":"L\u00e9on Blum","town":"Montpellier","lines":[]}},{"Louis Blanc":{"id":"74400613","lat":"43.6147452179528","lon":"3.87812239265931","name":"Louis Blanc","town":"Montpellier","lines":[]}},{"Malbosc":{"id":"74401464","lat":"43.634605679547","lon":"3.83345655902627","name":"Malbosc","town":"Montpellier","lines":[]}},{"Millenaire":{"id":"74399948","lat":"43.6028151798548","lon":"3.90955880226052","name":"Mill\u00e9naire","town":"Montpellier","lines":[]}},{"Mondial 98":{"id":"74401721","lat":"43.6026313539925","lon":"3.90410760430929","name":"Mondial 98","town":"Montpellier","lines":[]}},{"Mosson":{"id":"74400154","lat":"43.617367080407","lon":"3.8191557315836","name":"Mosson","town":"Montpellier","lines":[]}},{"Moulares":{"id":"74401595","lat":"43.600602470239","lon":"3.89551657652068","name":"Moular\u00e8s (H\u00f4tel de Ville)","town":"Montpellier","lines":[]}},{"Occitanie":{"id":"74400754","lat":"43.6345370485572","lon":"3.84848571021074","name":"Occitanie","town":"Montpellier","lines":[]}},{"Odysseum":{"id":"74399952","lat":"43.6040175140864","lon":"3.91788472850587","name":"Odysseum","town":"Montpellier","lines":[]}},{"Philippides":{"id":"74401720","lat":"43.6189897295652","lon":"3.86948234669712","name":"Stade Philippid\u00e8s","town":"Montpellier","lines":[]}},{"Pl. De L'europ":{"id":"74400617","lat":"43.6077163182588","lon":"3.89405785651245","name":"Place de l'Europe","town":"Montpellier","lines":[]}},{"Place De France":{"id":"74401724","lat":"43.6037388756489","lon":"3.91572943453595","name":"Place de France","town":"Montpellier","lines":[]}},{"Port Marianne":{"id":"74401593","lat":"43.6016070775761","lon":"3.89940970766382","name":"Port Marianne","town":"Montpellier","lines":[]}},{"Rives Du Lez T1":{"id":"74400615","lat":"43.6040853836827","lon":"3.89446422116891","name":"Rives du Lez","town":"Montpellier","lines":[]}},{"Saint Eloi":{"id":"74399961","lat":"43.6266341914944","lon":"3.86617020184665","name":"Saint-\u00c9loi","town":"Montpellier","lines":[]}},{"Saint Paul":{"id":"74401723","lat":"43.6306723785302","lon":"3.8210760860865","name":"Saint-Paul","town":"Montpellier","lines":[]}},{"Stade Mosson":{"id":"74401728","lat":"43.6212526955867","lon":"3.81736026665412","name":"Stade de la Mosson","town":"Montpellier","lines":[]}},{"Universites":{"id":"74400441","lat":"43.6292824134212","lon":"3.86140778504302","name":"Universit\u00e9s des Sciences et Lettres","town":"Montpellier","lines":[]}}],"2":[{"Aiguelongue":{"id":"74399923","lat":"43.626288258453","lon":"3.88267570357473","name":"Aiguelongue","town":"Montpellier","lines":[]}},{"Aube Rouge":{"id":"74400089","lat":"43.638823297571","lon":"3.92463023253584","name":"Aube Rouge","town":"Castelnau-le-Lez","lines":[]}},{"Beaux Arts":{"id":"74401652","lat":"43.6170097934758","lon":"3.88353508608718","name":"Beaux-Arts","town":"Montpellier","lines":[]}},{"Centurions":{"id":"74401663","lat":"43.6328121706313","lon":"3.91571036685606","name":"Centurions","town":"Castelnau-le-Lez","lines":[]}},{"Ch. De Gaulle":{"lines":[]}},{"Clairval":{"id":"74401661","lat":"43.6302068915517","lon":"3.90259345465358","name":"Clairval","town":"Castelnau-le-Lez","lines":[]}},{"Comedie":{"id":"74401665","lat":"43.6083669324149","lon":"3.87970706244691","name":"Com\u00e9die","town":"Montpellier","lines":[]}},{"Corum T2":{"id":"74400607","lat":"43.6142802818104","lon":"3.88191577851311","name":"Corum","town":"Montpellier","lines":[]}},{"Croix D'argent":{"id":"74401656","lat":"43.592369313903","lon":"3.86646157077226","name":"Croix d'Argent","town":"Montpellier","lines":[]}},{"Gare St-roch T1":{"id":"74400544","lat":"43.6051626028276","lon":"3.87967353379184","name":"Gare Saint-Roch","town":"Montpellier","lines":[]}},{"Georges Pompidou":{"id":"74401650","lat":"43.6492675103209","lon":"3.9209940235933","name":"Georges Pompidou","town":"Castelnau-le-Lez","lines":[]}},{"Jacou":{"id":"74401125","lat":"43.6546675997294","lon":"3.91287901714606","name":"Jacou","town":"Jacou","lines":[]}},{"La Condamine":{"id":"74401654","lat":"43.5716016489988","lon":"3.84420750606309","name":"La Condamine","town":"Saint-Jean-de-V\u00e9das","lines":[]}},{"La Galine":{"id":"74401653","lat":"43.6314710883365","lon":"3.90902692889704","name":"La Galine","town":"Castelnau-le-Lez","lines":[]}},{"Lemasson":{"id":"74401658","lat":"43.5937243564051","lon":"3.87328816206305","name":"Lemasson","town":"Montpellier","lines":[]}},{"Mail Des Abbes":{"id":"74401660","lat":"43.6202114299498","lon":"3.88407346232511","name":"Jeu de Mail des Abb\u00e9s","town":"Montpellier","lines":[]}},{"Mas Drevon":{"id":"74401655","lat":"43.5954773263634","lon":"3.8678991780415","name":"Mas Drevon","town":"Montpellier","lines":[]}},{"Nd Sablassou":{"lines":[]}},{"Nouveau St Roch":{"id":"74400612","lat":"43.599395112599","lon":"3.87561775687671","name":"Nouveau Saint-Roch","town":"Montpellier","lines":[]}},{"Rondelet":{"id":"74400608","lat":"43.6034872110247","lon":"3.87548882128635","name":"Rondelet","town":"Montpellier","lines":[]}},{"Sabines":{"id":"74399945","lat":"43.5839248820984","lon":"3.86000905573683","name":"Sabines","town":"Montpellier","lines":[]}},{"Saint Cleophas":{"id":"74399937","lat":"43.5952387065616","lon":"3.87597087503277","name":"Saint-Cl\u00e9ophas","town":"Montpellier","lines":[]}},{"Saint Lazare":{"id":"74399957","lat":"43.6268759405604","lon":"3.88887948575112","name":"Saint-Lazare","town":"Montpellier","lines":[]}},{"St Jean Centre":{"id":"74400221","lat":"43.5747533904863","lon":"3.83042612680245","name":"Saint-Jean de V\u00e9das Centre","town":"Saint-Jean-de-V\u00e9das","lines":[]}},{"St Jean Le Sec":{"id":"74401241","lat":"43.570682407301","lon":"3.83759046060594","name":"Saint-Jean le Sec","town":"Saint-Jean-de-V\u00e9das","lines":[]}},{"Via Domitia":{"id":"74401651","lat":"43.646533744598","lon":"3.9299308869608","name":"Via Domitia","town":"Castelnau-le-Lez","lines":[]}},{"Victoire 2":{"id":"74401657","lat":"43.5747900370058","lon":"3.84955881084678","name":"Victoire 2","town":"Saint-Jean-de-V\u00e9das","lines":[]}},{"Vil. D'angoule":{"id":"74401662","lat":"43.5887390354323","lon":"3.86572127816322","name":"Villeneuve d'Angoul\u00eame","town":"Montpellier","lines":[]}}],"3":[{"Astruc":{"id":"74401594","lat":"43.6102238810038","lon":"3.85488316568175","name":"Astruc","town":"Montpellier","lines":[]}},{"Boirargues":{"id":"74401588","lat":"43.5826015938232","lon":"3.92573091213745","name":"Boirargues","town":"Lattes","lines":[]}},{"Celleneuve":{"id":"74400924","lat":"43.6155773219952","lon":"3.82592689763045","name":"Celleneuve","town":"Montpellier","lines":[]}},{"Cougourlude":{"id":"74401599","lat":"43.571339472164","lon":"3.914253285112","name":"Cougourlude","town":"Lattes","lines":[]}},{"Ecopole":{"id":"74401591","lat":"43.5779947902191","lon":"3.93516119744009","name":"EcoP\u00f4le","town":"P\u00e9rols","lines":[]}},{"Etang De L'or":{"id":"74401586","lat":"43.5575501730788","lon":"3.96394679411979","name":"P\u00e9rols \u00c9tang de l'Or","town":"P\u00e9rols","lines":[]}},{"Gare St-roch T3":{"id":"74400544","lat":"43.6051626028276","lon":"3.87967353379184","name":"Gare Saint-Roch","town":"Montpellier","lines":[]}},{"H.du Departement":{"id":"74400912","lat":"43.6220294301421","lon":"3.83505739083583","name":"H\u00f4tel du D\u00e9partement","town":"Montpellier","lines":[]}},{"Hot. Departement":{"id":"74400912","lat":"43.6220294301421","lon":"3.83505739083583","name":"H\u00f4tel du D\u00e9partement","town":"Montpellier","lines":[]}},{"Jules Guesde":{"id":"74401587","lat":"43.611494659148","lon":"3.84662131368789","name":"Jules Guesde","town":"Montpellier","lines":[]}},{"Juvignac":{"id":"74401598","lat":"43.616561661717","lon":"3.80868253216491","name":"Juvignac","town":"Juvignac","lines":[]}},{"Lattes Centre":{"id":"74400658","lat":"","lon":"","name":"Lattes Centre","town":"Lattes","lines":[]}},{"Les Arceaux":{"id":"74401592","lat":"43.6099276928617","lon":"3.86219950837959","name":"Les Arceaux","town":"Montpellier","lines":[]}},{"Mosson":{"id":"74400154","lat":"43.617367080407","lon":"3.8191557315836","name":"Mosson","town":"Montpellier","lines":[]}},{"Moulares":{"id":"74401595","lat":"43.600602470239","lon":"3.89551657652068","name":"Moular\u00e8s (H\u00f4tel de Ville)","town":"Montpellier","lines":[]}},{"Observatoire":{"id":"74400573","lat":"43.6064049501532","lon":"3.87670970189679","name":"Observatoire","town":"Montpellier","lines":[]}},{"Pablo Picasso":{"id":"74401597","lat":"43.5977761552793","lon":"3.90354147210865","name":"Pablo Picasso","town":"Montpellier","lines":[]}},{"Parc Expo":{"id":"74401557","lat":"43.5730813648973","lon":"3.94520575290014","name":"Parc Expo","town":"P\u00e9rols","lines":[]}},{"Pergola":{"id":"74401590","lat":"43.6179326326943","lon":"3.83941680357955","name":"Pergola","town":"Montpellier","lines":[]}},{"Perols Centre":{"id":"74401562","lat":"43.5641097642275","lon":"3.95379246497042","name":"P\u00e9rols Centre","town":"P\u00e9rols","lines":[]}},{"Pilory":{"id":"74401600","lat":"43.6195614151661","lon":"3.83215899770569","name":"Pilory","town":"Montpellier","lines":[]}},{"Place Carnot":{"id":"74400539","lat":"43.603602897587","lon":"3.88418440582361","name":"Place Carnot","town":"Montpellier","lines":[]}},{"Plan Cabanes":{"id":"74400574","lat":"43.6084121510351","lon":"3.8681943511083","name":"Plan Cabanes","town":"Montpellier","lines":[]}},{"Port Marianne":{"id":"74401593","lat":"43.6016070775761","lon":"3.89940970766382","name":"Port Marianne","town":"Montpellier","lines":[]}},{"Rives Du Lez T2":{"id":"74400615","lat":"43.6040853836827","lon":"3.89446422116891","name":"Rives du Lez","town":"Montpellier","lines":[]}},{"Saint-denis":{"id":"74400564","lat":"43.6056360717793","lon":"3.87388382293218","name":"Saint-Denis","town":"Montpellier","lines":[]}},{"Saintdenis":{"lines":[]}},{"Tonnelles":{"id":"74399933","lat":"43.6142605034611","lon":"3.83929957832716","name":"Tonnelles","town":"Montpellier","lines":[]}},{"Voltaire":{"id":"74401589","lat":"43.6035252096922","lon":"3.88918830487012","name":"Voltaire","town":"Montpellier","lines":[]}}],"4":[{"Albert 1er":{"id":"74400610","lat":"43.6165153431063","lon":"3.87407454752208","name":"Place Albert 1er","town":"Montpellier","lines":[]}},{"Corum T1":{"id":"74400607","lat":"43.6142802818104","lon":"3.88191577851311","name":"Corum","town":"Montpellier","lines":[]}},{"Garcia Lorca":{"id":"74400298","lat":"43.5907999379787","lon":"3.8904751287886","name":"Garcia Lorca","town":"Montpellier","lines":[]}},{"Gare St-roch T3":{"id":"74400544","lat":"43.6051626028276","lon":"3.87967353379184","name":"Gare Saint-Roch","town":"Montpellier","lines":[]}},{"Hotel De Ville":{"id":"74401406","lat":"43.6139164528074","lon":"3.80521187339071","name":"H\u00f4tel de Ville","town":"Juvignac","lines":[]}},{"La Rauze":{"id":"74400609","lat":"43.5936138743612","lon":"3.8957711811221","name":"La Rauze","town":"Montpellier","lines":[]}},{"Les Aubes":{"id":"74400353","lat":"43.6138605371549","lon":"3.88860002739814","name":"Les Aubes","town":"Montpellier","lines":[]}},{"Louis Blanc":{"id":"74400613","lat":"43.6147452179528","lon":"3.87812239265931","name":"Louis Blanc","town":"Montpellier","lines":[]}},{"Nouveau St Roch":{"id":"74400612","lat":"43.599395112599","lon":"3.87561775687671","name":"Nouveau Saint-Roch","town":"Montpellier","lines":[]}},{"Observatoire":{"id":"74400573","lat":"43.6064049501532","lon":"3.87670970189679","name":"Observatoire","town":"Montpellier","lines":[]}},{"Pl. De L'europ":{"id":"74400617","lat":"43.6077163182588","lon":"3.89405785651245","name":"Place de l'Europe","town":"Montpellier","lines":[]}},{"Pompignane":{"id":"74400618","lat":"43.6127334667416","lon":"3.89493206402159","name":"Pompignane","town":"Montpellier","lines":[]}},{"Restanque":{"id":"74400614","lat":"43.5903936546899","lon":"3.8852695849143","name":"Restanque","town":"Montpellier","lines":[]}},{"Rives Du Lez T1":{"id":"74400615","lat":"43.6040853836827","lon":"3.89446422116891","name":"Rives du Lez","town":"Montpellier","lines":[]}},{"Rondelet":{"id":"74400608","lat":"43.6034872110247","lon":"3.87548882128635","name":"Rondelet","town":"Montpellier","lines":[]}},{"Saint-denis":{"id":"74400564","lat":"43.6056360717793","lon":"3.87388382293218","name":"Saint-Denis","town":"Montpellier","lines":[]}},{"Saint-martin":{"id":"74400616","lat":"43.5922337199633","lon":"3.88043400477089","name":"Saint-Martin","town":"Montpellier","lines":[]}}],"5":[{"A. L. Jussieu":{"id":"74400687","lat":"43.6385014932501","lon":"3.88310853206503","name":"Aiguelongue (Jussieu)","town":"Montpellier","lines":[]}},{"Aiguelongue":{"id":"74399923","lat":"43.626288258453","lon":"3.88267570357473","name":"Aiguelongue","town":"Montpellier","lines":[]}},{"Aiguelongue Juss":{"id":"74400687","lat":"43.6385014932501","lon":"3.88310853206503","name":"Aiguelongue (Jussieu)","town":"Montpellier","lines":[]}},{"Alpilles":{"id":"74400690","lat":"43.6300005814376","lon":"3.87940054599026","name":"Alpilles","town":"Montpellier","lines":[]}},{"Boutonnet":{"id":"74400693","lat":"43.6227119628888","lon":"3.86817771124942","name":"Boutonnet","town":"Montpellier","lines":[]}},{"Chantecler":{"id":"74400698","lat":"43.6324272556679","lon":"3.87817890946354","name":"Chantecler","town":"Montpellier","lines":[]}},{"Clolus":{"id":"74400692","lat":"43.6286219359025","lon":"3.88120115240384","name":"Clolus","town":"Montpellier","lines":[]}},{"Colonel Marchand":{"id":"74400688","lat":"43.6220339809925","lon":"3.86971254748671","name":"Colonel Marchand","town":"Montpellier","lines":[]}},{"Marie Caizergues":{"id":"74400689","lat":"43.6208916161188","lon":"3.87577627716","name":"Marie Caizergues","town":"Montpellier","lines":[]}},{"Moulin Gasconnet":{"id":"74400699","lat":"43.6343148323711","lon":"3.87377403153349","name":"Moulin de Gasconnet","town":"Montpellier","lines":[]}},{"Nazareth":{"id":"74400694","lat":"43.6217110437489","lon":"3.88041408513353","name":"Nazareth","town":"Montpellier","lines":[]}},{"Pierre Rouge":{"id":"74400691","lat":"43.623076624305","lon":"3.882678481013","name":"Pierre Rouge","town":"Montpellier","lines":[]}},{"Pioch Boutonnet":{"id":"74400700","lat":"43.6338177607613","lon":"3.87743668356957","name":"Pioch de Boutonnet","town":"Montpellier","lines":[]}},{"Rene Bougnol":{"id":"74400697","lat":"43.6365189694498","lon":"3.87397571336541","name":"Ren\u00e9 Bougnol","town":"Montpellier","lines":[]}},{"Sainte Odile":{"id":"74400696","lat":"43.6228021584423","lon":"3.87291349492322","name":"Sainte-Odile","town":"Montpellier","lines":[]}}],"6":[{"Alco":{"id":"74400757","lat":"43.6258509402572","lon":"3.83985411125395","name":"Alco","town":"Montpellier","lines":[]}},{"Ambroise Pare":{"id":"74400756","lat":"43.6381268226019","lon":"3.84789501692879","name":"Ambroise Par\u00e9","town":"Montpellier","lines":[]}},{"Anatole France":{"id":"74400578","lat":"43.60548721122","lon":"3.87644991098142","name":"Anatole France","town":"Montpellier","lines":[]}},{"Antennes":{"id":"74400767","lat":"43.6447206403263","lon":"3.84210264961506","name":"Antennes","town":"Montpellier","lines":[]}},{"Apothicaires":{"id":"74400747","lat":"43.6414785930971","lon":"3.83473845141172","name":"Apothicaires","town":"Montpellier","lines":[]}},{"Appel Du 18 Juin":{"id":"74400745","lat":"43.6362727429097","lon":"3.83056676504965","name":"Appel du 18 Juin","town":"Montpellier","lines":[]}},{"Arceaux":{"id":"74401592","lat":"43.6099276928617","lon":"3.86219950837959","name":"Les Arceaux","town":"Montpellier","lines":[]}},{"Av. De Toulouse":{"id":"74400752","lat":"43.5915771925959","lon":"3.85793116558353","name":"Avenue de Toulouse","town":"Montpellier","lines":[]}},{"Berthelot":{"id":"74400753","lat":"43.6019363750556","lon":"3.8694825084272","name":"Berthelot","town":"Montpellier","lines":[]}},{"Cevennes":{"id":"74400759","lat":"43.6220672259635","lon":"3.84624498544891","name":"C\u00e9vennes","town":"Montpellier","lines":[]}},{"Chateau D'o":{"id":"74400771","lat":"43.6314850756983","lon":"3.84287255949927","name":"Ch\u00e2teau d'\u00d4","town":"Montpellier","lines":[]}},{"Coll. C. Claudel":{"id":"74400743","lat":"43.6164285091452","lon":"3.86210711080997","name":"Coll\u00e8ge Camille Claudel","town":"Montpellier","lines":[]}},{"Doria":{"id":"74400770","lat":"43.612511836206","lon":"3.8679537173011","name":"Doria","town":"Montpellier","lines":[]}},{"Estanove":{"id":"74400755","lat":"43.5978036311888","lon":"3.84822621421824","name":"Estanove","town":"Montpellier","lines":[]}},{"Euromedecine":{"id":"74400746","lat":"43.6390920095547","lon":"3.82808319142705","name":"Eurom\u00e9decine","town":"Montpellier","lines":[]}},{"Font Couverte":{"id":"74400741","lat":"43.593503963304","lon":"3.85163128106791","name":"Font Couverte","town":"Montpellier","lines":[]}},{"G. Janvier":{"id":"74400750","lat":"43.5973640777133","lon":"3.8641585597822","name":"Guillaume Janvier","town":"Montpellier","lines":[]}},{"Gare Saint-roch":{"id":"74400544","lat":"43.6051626028276","lon":"3.87967353379184","name":"Gare Saint-Roch","town":"Montpellier","lines":[]}},{"Georges Brassens":{"id":"74400762","lat":"43.5958055516172","lon":"3.86248419133896","name":"Georges Brassens","town":"Montpellier","lines":[]}},{"Jean Bart":{"id":"74400765","lat":"43.6251204895797","lon":"3.83742790570092","name":"Jean Bart","town":"Montpellier","lines":[]}},{"La Gaillarde":{"id":"74400751","lat":"43.6162329368977","lon":"3.85843937421461","name":"La Gaillarde","town":"Montpellier","lines":[]}},{"Las Rebes":{"id":"74400744","lat":"43.6207800393193","lon":"3.84926122909585","name":"Las R\u00e9b\u00e8s","town":"Montpellier","lines":[]}},{"Le Grand M":{"id":"74399936","lat":"43.5910003521571","lon":"3.85473313987319","name":"Le Grand M","town":"Montpellier","lines":[]}},{"Louis Ravas":{"id":"74399947","lat":"43.6198176735933","lon":"3.851865240344","name":"Louis Ravaz","town":"Montpellier","lines":[]}},{"Lycee Clemenceau":{"id":"74400237","lat":"43.6030927432043","lon":"3.87161652630821","name":"Lyc\u00e9e Georges Clemenceau","town":"Montpellier","lines":[]}},{"Observatoire":{"id":"74400573","lat":"43.6064049501532","lon":"3.87670970189679","name":"Observatoire","town":"Montpellier","lines":[]}},{"Occitanie":{"id":"74400754","lat":"43.6345370485572","lon":"3.84848571021074","name":"Occitanie","town":"Montpellier","lines":[]}},{"Pas Du Loup":{"id":"74400565","lat":"43.600373423026","lon":"3.84863437674063","name":"Pas du Loup","town":"Montpellier","lines":[]}},{"Peyrou":{"id":"74400774","lat":"43.6112145997352","lon":"3.87195231161577","name":"Peyrou","town":"Montpellier","lines":[]}},{"Pierre Viala":{"id":"74400760","lat":"43.616825691947","lon":"3.8549596610351","name":"Pierre Viala","town":"Montpellier","lines":[]}},{"Pitot":{"id":"74400769","lat":"43.6121000801743","lon":"3.87036768662885","name":"Pitot","town":"Montpellier","lines":[]}},{"Place Du 8 Mai":{"id":"74400749","lat":"43.5997810375499","lon":"3.86678991265418","name":"Place du 8 Mai","town":"Montpellier","lines":[]}},{"Puech Villa":{"id":"74400764","lat":"43.6402505273","lon":"3.82992813926925","name":"Puech Villa","town":"Montpellier","lines":[]}},{"Ronceray":{"id":"74400768","lat":"43.5936228835974","lon":"3.86012537262586","name":"Ronceray","town":"Montpellier","lines":[]}},{"Rondelet":{"id":"74400608","lat":"43.6034872110247","lon":"3.87548882128635","name":"Rondelet","town":"Montpellier","lines":[]}},{"Rte De Ganges":{"id":"74400773","lat":"43.6429289232461","lon":"3.84520588372826","name":"Route de Ganges","town":"Montpellier","lines":[]}},{"Saint Denis":{"id":"74400564","lat":"43.6056360717793","lon":"3.87388382293218","name":"Saint-Denis","town":"Montpellier","lines":[]}},{"Saint Guilhem":{"id":"74400763","lat":"43.6087919866427","lon":"3.87289550019621","name":"Saint-Guilhem","town":"Montpellier","lines":[]}},{"Saint Priest":{"id":"74400766","lat":"43.6344993026344","lon":"3.84371451190719","name":"Saint-Priest","town":"Montpellier","lines":[]}},{"Sainte Genevieve":{"id":"74400748","lat":"43.6231363732993","lon":"3.84435515042488","name":"Sainte-Genevi\u00e8ve","town":"Montpellier","lines":[]}},{"Sainte Therese":{"id":"74400742","lat":"43.6141977149679","lon":"3.86538822419031","name":"Sainte-Th\u00e9r\u00e8se","town":"Montpellier","lines":[]}},{"Val D'aurelle":{"id":"74400772","lat":"43.642769808039","lon":"3.83627638489363","name":"Val d'Aurelle","town":"Montpellier","lines":[]}},{"Vega":{"id":"74400758","lat":"43.5956487574372","lon":"3.84964728629091","name":"V\u00e9ga","town":"Montpellier","lines":[]}}],"7":[{"Anatole France":{"id":"74400578","lat":"43.60548721122","lon":"3.87644991098142","name":"Anatole France","town":"Montpellier","lines":[]}},{"Bari":{"id":"74400889","lat":"43.6283344411981","lon":"3.82210439027204","name":"Bari","town":"Montpellier","lines":[]}},{"Berthelot":{"id":"74400753","lat":"43.6019363750556","lon":"3.8694825084272","name":"Berthelot","town":"Montpellier","lines":[]}},{"Carriera":{"id":"74400893","lat":"43.640821200231","lon":"3.81914894189163","name":"Carri\u00e9ra","town":"Montpellier","lines":[]}},{"Celleneuve":{"id":"74400924","lat":"43.6155773219952","lon":"3.82592689763045","name":"Celleneuve","town":"Montpellier","lines":[]}},{"Cervantes":{"id":"74400921","lat":"43.6225778247586","lon":"3.85472896360615","name":"Cervant\u00e8s","town":"Montpellier","lines":[]}},{"Chateau D'o":{"id":"74400771","lat":"43.6314850756983","lon":"3.84287255949927","name":"Ch\u00e2teau d'\u00d4","town":"Montpellier","lines":[]}},{"Cite Roger":{"id":"74400880","lat":"43.6203341412312","lon":"3.85862289564536","name":"Cit\u00e9 Roger","town":"Montpellier","lines":[]}},{"Comte De Nice":{"id":"74400884","lat":"43.6388326313209","lon":"3.81138574131973","name":"Comt\u00e9 de Nice","town":"Montpellier","lines":[]}},{"Comte Toulouse":{"id":"74400881","lat":"43.6368277882945","lon":"3.81896480364684","name":"Comt\u00e9 de Toulouse","town":"Montpellier","lines":[]}},{"Corse":{"id":"74400909","lat":"43.6405746478412","lon":"3.81120173449076","name":"Corse","town":"Montpellier","lines":[]}},{"Coubertin":{"id":"74400911","lat":"43.6375180892271","lon":"3.81450194676905","name":"Pierre de Coubertin","town":"Montpellier","lines":[]}},{"Croix Rosiers":{"id":"74400900","lat":"43.6107489068859","lon":"3.83072819294587","name":"Croix des Rosiers","town":"Montpellier","lines":[]}},{"Crx Du Capitaine":{"id":"74400914","lat":"43.602159943988","lon":"3.86638973883947","name":"Croix du Capitaine","town":"Montpellier","lines":[]}},{"Doria":{"id":"74400770","lat":"43.612511836206","lon":"3.8679537173011","name":"Doria","town":"Montpellier","lines":[]}},{"Etoile":{"id":"74400895","lat":"43.6052109470194","lon":"3.85465097545274","name":"\u00c9toile","town":"Montpellier","lines":[]}},{"Figairasse":{"id":"74400882","lat":"43.6070283937836","lon":"3.85069095561684","name":"Figairasse","town":"Montpellier","lines":[]}},{"Font Trouve":{"id":"74400913","lat":"43.6269623132573","lon":"3.84784089653671","name":"Font Trouv\u00e9","town":"Montpellier","lines":[]}},{"Francois Dezeuze":{"id":"74400890","lat":"43.6085368930064","lon":"3.84760090840611","name":"Fran\u00e7ois Dezeuze","town":"Montpellier","lines":[]}},{"Gardioles":{"id":"74400891","lat":"43.6248331901097","lon":"3.85159611434691","name":"Gardioles","town":"Montpellier","lines":[]}},{"Gare Saint-roch":{"id":"74400544","lat":"43.6051626028276","lon":"3.87967353379184","name":"Gare Saint-Roch","town":"Montpellier","lines":[]}},{"Gemeaux":{"id":"74400897","lat":"43.6328359753421","lon":"3.82259898633609","name":"G\u00e9meaux","town":"Montpellier","lines":[]}},{"Gouara":{"id":"74400904","lat":"43.60310942767","lon":"3.86249370575513","name":"Gouara","town":"Montpellier","lines":[]}},{"Grezes":{"id":"74400886","lat":"43.6097203964446","lon":"3.82773823475962","name":"Gr\u00e8zes","town":"Montpellier","lines":[]}},{"Gustave Eiffel":{"id":"74400916","lat":"43.6089297443646","lon":"3.83324155314846","name":"Gustave Eiffel","town":"Montpellier","lines":[]}},{"H.du Departement":{"id":"74400912","lat":"43.6220294301421","lon":"3.83505739083583","name":"H\u00f4tel du D\u00e9partement","town":"Montpellier","lines":[]}},{"Hauts De Massane":{"id":"74400922","lat":"43.636303785454","lon":"3.82276040290018","name":"Hauts de Massane","town":"Montpellier","lines":[]}},{"Hot. Departement":{"id":"74400912","lat":"43.6220294301421","lon":"3.83505739083583","name":"H\u00f4tel du D\u00e9partement","town":"Montpellier","lines":[]}},{"Jacques Prevert":{"id":"74400918","lat":"43.6423576663174","lon":"3.81427441984119","name":"Jacques Pr\u00e9vert","town":"Montpellier","lines":[]}},{"Jean Bart":{"id":"74400765","lat":"43.6251204895797","lon":"3.83742790570092","name":"Jean Bart","town":"Montpellier","lines":[]}},{"La Martelle":{"id":"74400908","lat":"43.6073844481028","lon":"3.82666281369447","name":"La Martelle","town":"Montpellier","lines":[]}},{"La Pile":{"id":"74400919","lat":"43.6172786674671","lon":"3.86779073728266","name":"La Pile","town":"Montpellier","lines":[]}},{"La Source":{"id":"74400906","lat":"43.6213803659225","lon":"3.85646049410896","name":"La Source","town":"Montpellier","lines":[]}},{"Lepic":{"id":"74400917","lat":"43.6014244331863","lon":"3.86309195220389","name":"Lepic","town":"Montpellier","lines":[]}},{"Lycee Clemenceau":{"id":"74400237","lat":"43.6030927432043","lon":"3.87161652630821","name":"Lyc\u00e9e Georges Clemenceau","town":"Montpellier","lines":[]}},{"Lycee De Vinci":{"id":"74400910","lat":"43.6263358586263","lon":"3.8232961362809","name":"Lyc\u00e9e L\u00e9onard de Vinci","town":"Montpellier","lines":[]}},{"Lycee J. Ferry":{"id":"74399921","lat":"43.6087130609055","lon":"3.84141044984672","name":"Lyc\u00e9e Jules Ferry","town":"Montpellier","lines":[]}},{"Lycee J. Monnet":{"id":"74400902","lat":"43.6239384423695","lon":"3.83450110468674","name":"Lyc\u00e9e Jean Monnet","town":"Montpellier","lines":[]}},{"Maison Sports":{"id":"74400903","lat":"43.6183732096846","lon":"3.86444820878333","name":"Maison des Sports","town":"Montpellier","lines":[]}},{"Marie Curie":{"id":"74400905","lat":"43.6147959331846","lon":"3.83125473184351","name":"Marie Curie","town":"Montpellier","lines":[]}},{"Martelliere":{"id":"74399934","lat":"43.6070259134031","lon":"3.83796699587034","name":"Martelli\u00e8re","town":"Montpellier","lines":[]}},{"Mas De Bellevue":{"id":"74400887","lat":"43.6368615324298","lon":"3.81254784533236","name":"Mas de Bellevue","town":"Montpellier","lines":[]}},{"Mas De Merle":{"id":"74400920","lat":"43.6043543591406","lon":"3.85771472206379","name":"Mas de Merle","town":"Montpellier","lines":[]}},{"Monsieur Teste":{"id":"74400901","lat":"43.6071809970985","lon":"3.83618341359659","name":"Monsieur Teste","town":"Montpellier","lines":[]}},{"Muriers":{"id":"74400907","lat":"43.6261237274067","lon":"3.84930994949955","name":"Muriers","town":"Montpellier","lines":[]}},{"Myrtes":{"id":"74400894","lat":"43.6011023730731","lon":"3.86616350032327","name":"Myrtes","town":"Montpellier","lines":[]}},{"Observatoire":{"id":"74400573","lat":"43.6064049501532","lon":"3.87670970189679","name":"Observatoire","town":"Montpellier","lines":[]}},{"Parc Malbosc":{"id":"74400892","lat":"43.623275888129","lon":"3.83105590872632","name":"Parc Malbosc","town":"Montpellier","lines":[]}},{"Petit Bard":{"id":"74400885","lat":"43.6146008760683","lon":"3.83528320018377","name":"Petit Bard","town":"Montpellier","lines":[]}},{"Peyrou":{"id":"74400774","lat":"43.6112145997352","lon":"3.87195231161577","name":"Peyrou","town":"Montpellier","lines":[]}},{"Pierre Cardenal":{"id":"74400888","lat":"43.6384781710143","lon":"3.81890862537451","name":"Pierre Cardenal","town":"Montpellier","lines":[]}},{"Pitot":{"id":"74400769","lat":"43.6121000801743","lon":"3.87036768662885","name":"Pitot","town":"Montpellier","lines":[]}},{"Pl. D'italie":{"id":"74400883","lat":"43.6417680835018","lon":"3.81827606803749","name":"Place d'Italie","town":"Montpellier","lines":[]}},{"Pleiade":{"id":"74400899","lat":"43.6285377499016","lon":"3.84574773011598","name":"Pl\u00e9iade","town":"Montpellier","lines":[]}},{"Pous De La Sers":{"id":"74400915","lat":"43.6192146003612","lon":"3.86151951357021","name":"Pous de la Sers","town":"Montpellier","lines":[]}},{"Raimbaud'orang":{"id":"74400879","lat":"43.6374849897866","lon":"3.82119130960316","name":"Raimbaud d'Orange","town":"Montpellier","lines":[]}},{"Renaudel":{"id":"74400898","lat":"43.6146316572099","lon":"3.82817576352747","name":"Renaudel","town":"Montpellier","lines":[]}},{"Rondelet":{"id":"74400608","lat":"43.6034872110247","lon":"3.87548882128635","name":"Rondelet","town":"Montpellier","lines":[]}},{"Saint Denis":{"id":"74400564","lat":"43.6056360717793","lon":"3.87388382293218","name":"Saint-Denis","town":"Montpellier","lines":[]}},{"561":{"lines":[]}},{"Saint Jaumes":{"id":"74400923","lat":"43.6137792801018","lon":"3.8704993846035","name":"Saint-Jaumes","town":"Montpellier","lines":[]}},{"Saint Roch":{"id":"74400896","lat":"43.6151662710261","lon":"3.86968288274841","name":"Saint-Roch","town":"Montpellier","lines":[]}},{"Tonnelles":{"id":"74399933","lat":"43.6142605034611","lon":"3.83929957832716","name":"Tonnelles","town":"Montpellier","lines":[]}}],"8":[{"Chambery":{"id":"74401020","lat":"43.5991299883153","lon":"3.88945233064267","name":"Chamb\u00e9ry","town":"Montpellier","lines":[]}},{"Cite De L'arme":{"id":"74400844","lat":"43.593449629884","lon":"3.88937835789957","name":"Cit\u00e9 de l'Arme","town":"Montpellier","lines":[]}},{"Cite Mion":{"id":"74400851","lat":"43.6009640794651","lon":"3.88473349589925","name":"Cit\u00e9 Mion","town":"Montpellier","lines":[]}},{"Col. Aiguerelles":{"id":"74401017","lat":"43.5977801324201","lon":"3.89174110200542","name":"Coll\u00e8ge des Aiguerelles","town":"Montpellier","lines":[]}},{"Frederic Bazille":{"id":"74400849","lat":"43.6024297789857","lon":"3.88093219213073","name":"Fr\u00e9d\u00e9ric Bazille","town":"Montpellier","lines":[]}},{"Gare Routiere":{"id":"74400544","lat":"43.6051626028276","lon":"3.87967353379184","name":"Gare Saint-Roch","town":"Montpellier","lines":[]}},{"Gare Saint-roch":{"id":"74400544","lat":"43.6051626028276","lon":"3.87967353379184","name":"Gare Saint-Roch","town":"Montpellier","lines":[]}},{"Helios":{"id":"74401019","lat":"43.601031590606","lon":"3.88566927055691","name":"Helios","town":"Montpellier","lines":[]}},{"Henri Rene":{"id":"74400540","lat":"43.6031874017621","lon":"3.88201654271987","name":"Henri Ren\u00e9","town":"Montpellier","lines":[]}},{"Jean Mirailhet":{"id":"74401018","lat":"43.5954578028058","lon":"3.89132538087983","name":"Jean Mirailhet","town":"Montpellier","lines":[]}},{"Lucullus":{"id":"74400846","lat":"43.5947382497388","lon":"3.88853519300039","name":"Lucullus","town":"Montpellier","lines":[]}},{"Place Carnot":{"id":"74400539","lat":"43.603602897587","lon":"3.88418440582361","name":"Place Carnot","town":"Montpellier","lines":[]}},{"Place Strasbourg":{"id":"74400533","lat":"43.6031881586457","lon":"3.88007437994248","name":"Place de Strasbourg","town":"Montpellier","lines":[]}},{"Soleiado":{"id":"74401021","lat":"43.6005123378622","lon":"3.88677467900617","name":"Soleiado","town":"Montpellier","lines":[]}}],"9":[{"Albert Einstein":{"id":"74401043","lat":"43.613211039195","lon":"3.93704379847525","name":"Albert Einstein","town":"Montpellier","lines":[]}},{"Alfred Nobel":{"id":"74401045","lat":"43.6160998665069","lon":"3.91016902189631","name":"Alfred Nobel","town":"Montpellier","lines":[]}},{"Andre Malraux":{"id":"74401032","lat":"43.6194562313695","lon":"3.90033738661354","name":"Andr\u00e9 Malraux","town":"Montpellier","lines":[]}},{"Apollo":{"id":"74401046","lat":"43.6221149634463","lon":"3.90948707506385","name":"Apollo","town":"Montpellier","lines":[]}},{"Cim. St Etienne":{"id":"74401040","lat":"43.6149357558914","lon":"3.93561351318586","name":"Cimeti\u00e8re Saint-\u00c9tienne","town":"Montpellier","lines":[]}},{"Cinq Chalets":{"id":"74401035","lat":"43.6086265230189","lon":"3.89889036080978","name":"Cinq Chalets","town":"Montpellier","lines":[]}},{"Colverts":{"id":"74401036","lat":"43.6138112729006","lon":"3.89811656848446","name":"Colverts","town":"Montpellier","lines":[]}},{"Dom. Pompignane":{"id":"74401051","lat":"43.6218773509284","lon":"3.90696846148998","name":"Domaine de la Pompignane","town":"Montpellier","lines":[]}},{"Eureka":{"id":"74401041","lat":"43.6183413659007","lon":"3.91315103239297","name":"Eur\u00eaka","town":"Montpellier","lines":[]}},{"Evariste Gallois":{"id":"74401053","lat":"43.6091241308418","lon":"3.91261828250167","name":"\u00c9variste Galois","town":"Montpellier","lines":[]}},{"Fr. Couperin":{"id":"74401039","lat":"43.6127910086666","lon":"3.90308726333316","name":"Fran\u00e7ois Couperin","town":"Montpellier","lines":[]}},{"G. Marconi":{"id":"74401052","lat":"43.6120372690109","lon":"3.91227798904822","name":"Guglielmo Marconi","town":"Montpellier","lines":[]}},{"Georges Melies":{"id":"74401031","lat":"43.6069100644165","lon":"3.92386476849103","name":"Georges M\u00e9li\u00e8s","town":"Montpellier","lines":[]}},{"Grammont":{"id":"74401042","lat":"43.6141509415733","lon":"3.9306175438323","name":"Grammont","town":"Montpellier","lines":[]}},{"Louis Lepine":{"id":"74401048","lat":"43.6147786765094","lon":"3.91446943043208","name":"Louis L\u00e9pine","town":"Montpellier","lines":[]}},{"Marie Durand":{"id":"74401034","lat":"43.6183620385222","lon":"3.89798112969591","name":"Marie Durand","town":"Montpellier","lines":[]}},{"Odysseum":{"id":"74399952","lat":"43.6040175140864","lon":"3.91788472850587","name":"Odysseum","town":"Montpellier","lines":[]}},{"Paul Painleve":{"id":"74401038","lat":"43.6108466992889","lon":"3.89859846981326","name":"Paul Painlev\u00e9","town":"Montpellier","lines":[]}},{"Pierre Laroque":{"id":"74399942","lat":"43.6215981875365","lon":"3.90431467121254","name":"Pierre Laroque","town":"Montpellier","lines":[]}},{"Pinville":{"id":"74399919","lat":"43.6138530445479","lon":"3.90532805883155","name":"Pinville","town":"Montpellier","lines":[]}},{"Pl. De L'europ":{"id":"74400617","lat":"43.6077163182588","lon":"3.89405785651245","name":"Place de l'Europe","town":"Montpellier","lines":[]}},{"Pompignag Semard":{"id":"74399962","lat":"43.6193790797721","lon":"3.90380622983171","name":"S\u00e9mard","town":"Montpellier","lines":[]}},{"Saint Jean":{"id":"74401047","lat":"43.6155748548526","lon":"3.89769459427005","name":"Saint-Jean","town":"Montpellier","lines":[]}},{"Saint Michel":{"id":"74401249","lat":"43.5809245214198","lon":"3.83378805686101","name":"Louise Michel","town":"Saint-Jean-de-V\u00e9das","lines":[]}},{"Samuel Morse":{"id":"74401050","lat":"43.6066735015878","lon":"3.91329915025378","name":"Samuel Morse","town":"Montpellier","lines":[]}},{"Vieille Poste":{"id":"74401049","lat":"43.6107245400417","lon":"3.90020971317778","name":"Vieille Poste","town":"Montpellier","lines":[]}},{"Volta Fizeau":{"id":"74401044","lat":"43.6138393189565","lon":"3.91323092785404","name":"Volta Fizeau","town":"Montpellier","lines":[]}},{"Zenith":{"id":"74401033","lat":"43.6121223255147","lon":"3.93101872376049","name":"Z\u00e9nith","town":"Montpellier","lines":[]}}],"10":[{"Aiguelongue":{"id":"74399923","lat":"43.626288258453","lon":"3.88267570357473","name":"Aiguelongue","town":"Montpellier","lines":[]}},{"Belvedere":{"id":"74399927","lat":"43.6171302999706","lon":"3.84248906806063","name":"Belv\u00e9d\u00e8re","town":"Montpellier","lines":[]}},{"Bengalis":{"id":"74399935","lat":"43.6285969396945","lon":"3.88295169514388","name":"Bengalis","town":"Montpellier","lines":[]}},{"Bugarel":{"id":"74399910","lat":"43.5913015731727","lon":"3.84519722721927","name":"Bugarel","town":"Montpellier","lines":[]}},{"Castelle":{"id":"74399940","lat":"43.5867007225735","lon":"3.87222124135296","name":"Castelle","town":"Montpellier","lines":[]}},{"Ch. De Gaulle":{"lines":[]}},{"Cheng-du":{"id":"74399913","lat":"43.5935487252905","lon":"3.84327761042623","name":"Cheng-Du","town":"Montpellier","lines":[]}},{"Cinsaults":{"id":"74399941","lat":"43.6205820116349","lon":"3.85697753313947","name":"Cinsaults","town":"Montpellier","lines":[]}},{"Demeter":{"id":"74399955","lat":"43.5843022547767","lon":"3.87241649067543","name":"Demeter","town":"Montpellier","lines":[]}},{"Ettore Bugatti":{"id":"74399944","lat":"43.5787260700674","lon":"3.86848906470827","name":"Ettore Bugatti","town":"Montpellier","lines":[]}},{"Fac De Pharmacie":{"id":"74399953","lat":"43.6240748102173","lon":"3.86238560621587","name":"Fac de Pharmacie","town":"Montpellier","lines":[]}},{"Garosud":{"id":"74399912","lat":"43.580857061414","lon":"3.86940559912082","name":"Garosud (Jeune Parque)","town":"Montpellier","lines":[]}},{"Goelands":{"id":"74399959","lat":"43.6163987809246","lon":"3.9031985804142","name":"Go\u00e9lands","town":"Montpellier","lines":[]}},{"Henri Dunant":{"id":"74399909","lat":"43.6268463688854","lon":"3.86919201392683","name":"Henri Dunant","town":"Montpellier","lines":[]}},{"Henri Mares":{"id":"74399930","lat":"43.6201572398919","lon":"3.85425627793198","name":"Henri Mar\u00e8s","town":"Montpellier","lines":[]}},{"Jasse De Maurin":{"id":"74399928","lat":"43.5808874267605","lon":"3.86344613675863","name":"Jasse de Maurin","town":"Montpellier","lines":[]}},{"Jean Calvin":{"id":"74399956","lat":"43.6186288197809","lon":"3.84591281731046","name":"Jean Calvin","town":"Montpellier","lines":[]}},{"Lagoya":{"id":"74399925","lat":"43.6119412148628","lon":"3.90589727578706","name":"Lagoya","town":"Montpellier","lines":[]}},{"Le Grand M":{"id":"74399936","lat":"43.5910003521571","lon":"3.85473313987319","name":"Le Grand M","town":"Montpellier","lines":[]}},{"Les Bouisses":{"id":"74401169","lat":"43.5963234979825","lon":"3.83702404356214","name":"Les Bouisses","town":"Montpellier","lines":[]}},{"Les Lacs":{"id":"74399938","lat":"43.6253151434202","lon":"3.90019461903723","name":"La Pompignane (Les Lacs)","town":"Castelnau-le-Lez","lines":[]}},{"Les Pins":{"id":"74399911","lat":"43.5909000007545","lon":"3.87340391308309","name":"Les Pins","town":"Montpellier","lines":[]}},{"Louis Ravas":{"id":"74399947","lat":"43.6198176735933","lon":"3.851865240344","name":"Louis Ravaz","town":"Montpellier","lines":[]}},{"Lycee J. Ferry":{"id":"74399921","lat":"43.6087130609055","lon":"3.84141044984672","name":"Lyc\u00e9e Jules Ferry","town":"Montpellier","lines":[]}},{"M. Chevalier":{"id":"74399951","lat":"43.6284522517002","lon":"3.88740935395875","name":"Maurice Chevalier","town":"Montpellier","lines":[]}},{"Major Flandre":{"id":"74399922","lat":"43.6269488292006","lon":"3.87337775251892","name":"Major Flandre","town":"Montpellier","lines":[]}},{"Martelliere":{"id":"74399934","lat":"43.6070259134031","lon":"3.83796699587034","name":"Martelli\u00e8re","town":"Montpellier","lines":[]}},{"Mas De Bagneres":{"id":"74399917","lat":"43.587041992477","lon":"3.85857100448579","name":"Mas de Bagn\u00e8res","town":"Montpellier","lines":[]}},{"Millenaire":{"id":"74399948","lat":"43.6028151798548","lon":"3.90955880226052","name":"Mill\u00e9naire","town":"Montpellier","lines":[]}},{"Odysseum":{"id":"74399952","lat":"43.6040175140864","lon":"3.91788472850587","name":"Odysseum","town":"Montpellier","lines":[]}},{"Ormeaux":{"id":"74399958","lat":"43.6025658824611","lon":"3.83351399239071","name":"Ormeaux","town":"Montpellier","lines":[]}},{"Parc Lironde":{"id":"74399924","lat":"43.6086918429877","lon":"3.9064884651034","name":"Parc de la Lironde","town":"Montpellier","lines":[]}},{"Passerines":{"id":"74399914","lat":"43.5883976840315","lon":"3.8723657809684","name":"Passerines","town":"Montpellier","lines":[]}},{"Pastourelles":{"id":"74399939","lat":"43.6218020636973","lon":"3.90130496669934","name":"Pastourelles","town":"Montpellier","lines":[]}},{"Patrice Lumumba":{"id":"74399916","lat":"43.5798609512435","lon":"3.86515606655313","name":"Patrice Lumumba","town":"Montpellier","lines":[]}},{"Paul Fajon":{"id":"74399920","lat":"43.5953612367564","lon":"3.83737602320832","name":"Paul Fajon","town":"Montpellier","lines":[]}},{"Pierre Laroque":{"id":"74399942","lat":"43.6215981875365","lon":"3.90431467121254","name":"Pierre Laroque","town":"Montpellier","lines":[]}},{"Pinville":{"id":"74399919","lat":"43.6138530445479","lon":"3.90532805883155","name":"Pinville","town":"Montpellier","lines":[]}},{"Pompignag Semard":{"id":"74399962","lat":"43.6193790797721","lon":"3.90380622983171","name":"S\u00e9mard","town":"Montpellier","lines":[]}},{"Rieges":{"id":"74399932","lat":"43.6196552773507","lon":"3.84933662079999","name":"Ri\u00e8ges","town":"Montpellier","lines":[]}},{"Roqueturiere":{"id":"74399950","lat":"43.630126221315","lon":"3.88570973459918","name":"Roqueturi\u00e8re","town":"Montpellier","lines":[]}},{"Rouget De Lisle":{"id":"74399926","lat":"43.5946689074662","lon":"3.83965221901373","name":"Rouget de Lisle","town":"Montpellier","lines":[]}},{"Sabines":{"id":"74399945","lat":"43.5839248820984","lon":"3.86000905573683","name":"Sabines","town":"Montpellier","lines":[]}},{"Saint Cleophas":{"id":"74399937","lat":"43.5952387065616","lon":"3.87597087503277","name":"Saint-Cl\u00e9ophas","town":"Montpellier","lines":[]}},{"Saint Eloi":{"id":"74399961","lat":"43.6266341914944","lon":"3.86617020184665","name":"Saint-\u00c9loi","town":"Montpellier","lines":[]}},{"Saint Lazare":{"id":"74399957","lat":"43.6268759405604","lon":"3.88887948575112","name":"Saint-Lazare","town":"Montpellier","lines":[]}},{"Sainte Catherine":{"id":"74399949","lat":"43.6263484250876","lon":"3.87640599351109","name":"Sainte-Catherine","town":"Montpellier","lines":[]}},{"Salaison":{"id":"74399929","lat":"43.6236621621735","lon":"3.89855915925857","name":"Salaison","town":"Montpellier","lines":[]}},{"Sophie Germain":{"id":"74399918","lat":"43.6050746691116","lon":"3.8354106167322","name":"Sophie Germain","town":"Montpellier","lines":[]}},{"Tam":{"id":"74399960","lat":"43.5814407875653","lon":"3.87039815722688","name":"TaM","town":"Montpellier","lines":[]}},{"Tonnelles":{"id":"74399933","lat":"43.6142605034611","lon":"3.83929957832716","name":"Tonnelles","town":"Montpellier","lines":[]}},{"Tourterelles":{"id":"74399931","lat":"43.6257648565144","lon":"3.87856215531543","name":"Tourterelles","town":"Montpellier","lines":[]}},{"Vauguieres":{"id":"74399954","lat":"43.6046612174807","lon":"3.906711722936","name":"Vaugui\u00e8res","town":"Montpellier","lines":[]}},{"Voie Domitienne":{"id":"74399946","lat":"43.6225501524669","lon":"3.86021641595224","name":"Voie Domitienne","town":"Montpellier","lines":[]}},{"Yves Du Manoir":{"id":"74399943","lat":"43.5916088758466","lon":"3.84958360629704","name":"Yves du Manoir","town":"Montpellier","lines":[]}}],"11":[{"Anatole France":{"id":"74400578","lat":"43.60548721122","lon":"3.87644991098142","name":"Anatole France","town":"Montpellier","lines":[]}},{"Bagatelle":{"id":"74400572","lat":"43.5951493403316","lon":"3.84421036567811","name":"Bagatelle","town":"Montpellier","lines":[]}},{"Chasseurs":{"id":"74400575","lat":"43.6032433839703","lon":"3.85616975322062","name":"Chasseurs","town":"Montpellier","lines":[]}},{"Cheng-du":{"id":"74399913","lat":"43.5935487252905","lon":"3.84327761042623","name":"Cheng-Du","town":"Montpellier","lines":[]}},{"Cite Gely":{"id":"74400577","lat":"43.604764475093","lon":"3.85923488768794","name":"Cit\u00e9 G\u00e9ly","town":"Montpellier","lines":[]}},{"Cite Valette":{"id":"74400569","lat":"43.6015236928488","lon":"3.8518748680499","name":"Cit\u00e9 Valette","town":"Montpellier","lines":[]}},{"Claret":{"id":"74400571","lat":"43.6057681170987","lon":"3.8620142040972","name":"Claret","town":"Montpellier","lines":[]}},{"College Pagnol":{"id":"74400562","lat":"43.5973635290131","lon":"3.84562321784285","name":"Coll\u00e8ge Marcel Pagnol","town":"Montpellier","lines":[]}},{"Craponne":{"id":"74400563","lat":"43.6062489640272","lon":"3.86774872658053","name":"Craponne","town":"Montpellier","lines":[]}},{"Figuerolles":{"id":"74400567","lat":"43.6063917430259","lon":"3.86432571933919","name":"Figuerolles","town":"Montpellier","lines":[]}},{"Gambetta":{"id":"74400566","lat":"43.6068289584803","lon":"3.87154371743242","name":"Gambetta","town":"Montpellier","lines":[]}},{"Gare Saint-roch":{"id":"74400544","lat":"43.6051626028276","lon":"3.87967353379184","name":"Gare Saint-Roch","town":"Montpellier","lines":[]}},{"Les Bouisses":{"id":"74401169","lat":"43.5963234979825","lon":"3.83702404356214","name":"Les Bouisses","town":"Montpellier","lines":[]}},{"Les Roses":{"id":"74400576","lat":"43.6024624837367","lon":"3.85416354129177","name":"Les Roses","town":"Montpellier","lines":[]}},{"Observatoire":{"id":"74400573","lat":"43.6064049501532","lon":"3.87670970189679","name":"Observatoire","town":"Montpellier","lines":[]}},{"Palissade":{"id":"74400568","lat":"43.6075244690686","lon":"3.86972523767019","name":"Palissade","town":"Montpellier","lines":[]}},{"Pas Du Loup":{"id":"74400565","lat":"43.600373423026","lon":"3.84863437674063","name":"Pas du Loup","town":"Montpellier","lines":[]}},{"Paul Fajon":{"id":"74399920","lat":"43.5953612367564","lon":"3.83737602320832","name":"Paul Fajon","town":"Montpellier","lines":[]}},{"Plan Cabanes":{"id":"74400574","lat":"43.6084121510351","lon":"3.8681943511083","name":"Plan Cabanes","town":"Montpellier","lines":[]}},{"Renouvier":{"id":"74400570","lat":"43.6072875629015","lon":"3.86677447658963","name":"Renouvier","town":"Montpellier","lines":[]}},{"Rouget De Lisle":{"id":"74399926","lat":"43.5946689074662","lon":"3.83965221901373","name":"Rouget de Lisle","town":"Montpellier","lines":[]}},{"Saint Denis":{"id":"74400564","lat":"43.6056360717793","lon":"3.87388382293218","name":"Saint-Denis","town":"Montpellier","lines":[]}}],"12":[{"Bellevue":{"id":"74400531","lat":"43.5959290642424","lon":"3.88227788212746","name":"Bellevue","town":"Montpellier","lines":[]}},{"Centrayrargues":{"id":"74400538","lat":"43.5968682491663","lon":"3.88072002779146","name":"Centrayrargues","town":"Montpellier","lines":[]}},{"Coquelicots":{"id":"74400536","lat":"43.5977746246714","lon":"3.88020026809645","name":"Coquelicots","town":"Montpellier","lines":[]}},{"Descartes":{"id":"74400535","lat":"43.5966849017191","lon":"3.88348577123261","name":"Descartes","town":"Montpellier","lines":[]}},{"Frederic Peysson":{"id":"74400534","lat":"43.6025215956973","lon":"3.88016770623277","name":"Fr\u00e9d\u00e9ric Peysson","town":"Montpellier","lines":[]}},{"Gare Routiere":{"id":"74400544","lat":"43.6051626028276","lon":"3.87967353379184","name":"Gare Saint-Roch","town":"Montpellier","lines":[]}},{"Gare Saint-roch":{"id":"74400544","lat":"43.6051626028276","lon":"3.87967353379184","name":"Gare Saint-Roch","town":"Montpellier","lines":[]}},{"Henri Rene":{"id":"74400540","lat":"43.6031874017621","lon":"3.88201654271987","name":"Henri Ren\u00e9","town":"Montpellier","lines":[]}},{"Leon Cordes":{"id":"74400543","lat":"43.6015638629728","lon":"3.88302409798428","name":"L\u00e9on Cord\u00e8s","town":"Montpellier","lines":[]}},{"Paquerettes":{"id":"74400532","lat":"43.5996922562035","lon":"3.88126021780938","name":"P\u00e2querettes","town":"Montpellier","lines":[]}},{"Place Carnot":{"id":"74400539","lat":"43.603602897587","lon":"3.88418440582361","name":"Place Carnot","town":"Montpellier","lines":[]}},{"Place Strasbourg":{"id":"74400533","lat":"43.6031881586457","lon":"3.88007437994248","name":"Place de Strasbourg","town":"Montpellier","lines":[]}},{"Porto":{"id":"74400542","lat":"43.6003732960132","lon":"3.87983752722839","name":"Porto","town":"Montpellier","lines":[]}},{"Primeveres":{"id":"74400537","lat":"43.5981606430512","lon":"3.881497125262","name":"Primev\u00e8res","town":"Montpellier","lines":[]}},{"Razeteurs":{"id":"74400541","lat":"43.595659392585","lon":"3.88416303961435","name":"Razeteurs","town":"Montpellier","lines":[]}}],"13":[{"Agropolis":{"id":"74400443","lat":"43.6468936742359","lon":"3.86845092096179","name":"Agropolis","town":"Montpellier","lines":[]}},{"Campus Agropolis":{"id":"74400436","lat":"43.644885331107","lon":"3.86891697726574","name":"Campus Agropolis","town":"Montpellier","lines":[]}},{"E. Architecture":{"id":"74400439","lat":"43.637582763382","lon":"3.85945401197933","name":"\u00c9cole d'Architecture","town":"Montpellier","lines":[]}},{"Ecossais":{"id":"74400448","lat":"43.6366265127955","lon":"3.86001026529138","name":"\u00c9cossais","town":"Montpellier","lines":[]}},{"Eugene Bataillon":{"id":"74400445","lat":"43.6315777866422","lon":"3.86071719233427","name":"Eug\u00e8ne Bataillon","town":"Montpellier","lines":[]}},{"Fac De Lettres":{"id":"74400435","lat":"43.6302644741722","lon":"3.86968598124509","name":"Fac de Lettres","town":"Montpellier","lines":[]}},{"Gascogne":{"id":"74400434","lat":"43.6345647388511","lon":"3.8599119392252","name":"Gascogne","town":"Montpellier","lines":[]}},{"Henri Dunant":{"id":"74399909","lat":"43.6268463688854","lon":"3.86919201392683","name":"Henri Dunant","town":"Montpellier","lines":[]}},{"Hortus":{"id":"74400444","lat":"43.6433515641451","lon":"3.86028255204623","name":"Hortus","town":"Montpellier","lines":[]}},{"Lavalette":{"id":"74400437","lat":"43.6376825116245","lon":"3.86926625254678","name":"Lavalette","town":"Montpellier","lines":[]}},{"Lycee F. Bazille":{"id":"74400442","lat":"43.6451195332249","lon":"3.86209383263608","name":"Lyc\u00e9e Fr\u00e9d\u00e9ric Bazille","town":"Montpellier","lines":[]}},{"Maurice Chauvet":{"id":"74400447","lat":"43.6386290698006","lon":"3.8566473098974","name":"Maurice Chauvet","town":"Montpellier","lines":[]}},{"Pic St Loup":{"id":"74400433","lat":"43.639203654722","lon":"3.85445926548235","name":"Pic Saint-Loup","town":"Montpellier","lines":[]}},{"Plan 4 Seigneurs":{"id":"74400440","lat":"43.6407941197185","lon":"3.85771381092454","name":"Plan des 4 Seigneurs","town":"Montpellier","lines":[]}},{"Saint Eloi":{"id":"74399961","lat":"43.6266341914944","lon":"3.86617020184665","name":"Saint-\u00c9loi","town":"Montpellier","lines":[]}},{"Universites":{"id":"74400441","lat":"43.6292824134212","lon":"3.86140778504302","name":"Universit\u00e9s des Sciences et Lettres","town":"Montpellier","lines":[]}},{"Vert Bois":{"id":"74400446","lat":"43.6347984937663","lon":"3.86819246286055","name":"Vert Bois","town":"Montpellier","lines":[]}},{"Zoo":{"id":"74400438","lat":"43.6400059194679","lon":"3.87310407609559","name":"Zoo","town":"Montpellier","lines":[]}}],"14":[{"Bd Des Sports":{"id":"74400348","lat":"43.6194143329697","lon":"3.88919950284546","name":"Boulevard des Sports","town":"Montpellier","lines":[]}},{"Ernest Renan":{"id":"74400351","lat":"43.6154374462861","lon":"3.88536086533713","name":"Ernest Renan","town":"Montpellier","lines":[]}},{"Estragon":{"id":"74400352","lat":"43.6186602306241","lon":"3.88787355046428","name":"Estragon","town":"Montpellier","lines":[]}},{"Foyer Des Aubes":{"id":"74400354","lat":"43.6185075973948","lon":"3.894743131151","name":"Foyer des Aubes","town":"Montpellier","lines":[]}},{"Francoise":{"id":"74400346","lat":"43.6199474716471","lon":"3.8912000630643","name":"Fran\u00e7oise","town":"Montpellier","lines":[]}},{"Garigliano":{"id":"74400355","lat":"","lon":"","name":"Garigliano","town":"Montpellier","lines":[]}},{"Jean Mermoz":{"id":"74400345","lat":"43.612827521163","lon":"3.88901428475379","name":"Jean Mermoz","town":"Montpellier","lines":[]}},{"Leon Blum":{"id":"74400347","lat":"43.6091600297124","lon":"3.89014150106837","name":"L\u00e9on Blum","town":"Montpellier","lines":[]}},{"Les Aubes":{"id":"74400353","lat":"43.6138605371549","lon":"3.88860002739814","name":"Les Aubes","town":"Montpellier","lines":[]}},{"Les Lacs":{"id":"74399938","lat":"43.6253151434202","lon":"3.90019461903723","name":"La Pompignane (Les Lacs)","town":"Castelnau-le-Lez","lines":[]}},{"Palombes":{"id":"74400350","lat":"43.6195963614668","lon":"3.89404894323151","name":"Palombes","town":"Montpellier","lines":[]}},{"Pinsons":{"id":"74400349","lat":"43.6170883004058","lon":"3.88621610059007","name":"Pinsons","town":"Montpellier","lines":[]}},{"Saint Maur":{"lines":[]}},{"Salaison":{"id":"74399929","lat":"43.6236621621735","lon":"3.89855915925857","name":"Salaison","town":"Montpellier","lines":[]}}],"15":[],"16":[{"Cite De L'arme":{"id":"74400844","lat":"43.593449629884","lon":"3.88937835789957","name":"Cit\u00e9 de l'Arme","town":"Montpellier","lines":[]}},{"Cite Mion":{"id":"74400851","lat":"43.6009640794651","lon":"3.88473349589925","name":"Cit\u00e9 Mion","town":"Montpellier","lines":[]}},{"Fr. Fabreges":{"id":"74400845","lat":"43.5972829839448","lon":"3.88660666445342","name":"Fr\u00e9d\u00e9ric Fabr\u00e8ges","town":"Montpellier","lines":[]}},{"Frederic Bazille":{"id":"74400849","lat":"43.6024297789857","lon":"3.88093219213073","name":"Fr\u00e9d\u00e9ric Bazille","town":"Montpellier","lines":[]}},{"Garcia Lorca":{"id":"74400298","lat":"43.5907999379787","lon":"3.8904751287886","name":"Garcia Lorca","town":"Montpellier","lines":[]}},{"Gare Routiere":{"id":"74400544","lat":"43.6051626028276","lon":"3.87967353379184","name":"Gare Saint-Roch","town":"Montpellier","lines":[]}},{"Gare Saint-roch":{"id":"74400544","lat":"43.6051626028276","lon":"3.87967353379184","name":"Gare Saint-Roch","town":"Montpellier","lines":[]}},{"Henri Rene":{"id":"74400540","lat":"43.6031874017621","lon":"3.88201654271987","name":"Henri Ren\u00e9","town":"Montpellier","lines":[]}},{"Industrie":{"id":"74400848","lat":"43.5847667116408","lon":"3.88177811669985","name":"Industrie","town":"Montpellier","lines":[]}},{"Iris":{"id":"74400850","lat":"43.5988552897032","lon":"3.88541235174111","name":"Iris","town":"Montpellier","lines":[]}},{"Lucullus":{"id":"74400846","lat":"43.5947382497388","lon":"3.88853519300039","name":"Lucullus","town":"Montpellier","lines":[]}},{"Marche Gare":{"id":"74400852","lat":"43.5838391663118","lon":"3.88597616855203","name":"March\u00e9 Gare","town":"Montpellier","lines":[]}},{"Mas Argelliers":{"id":"74400853","lat":"43.5867178426542","lon":"3.88928201540419","name":"Mas Argelliers","town":"Montpellier","lines":[]}},{"Mas St Pierre":{"id":"74400855","lat":"43.581994831735","lon":"3.88010795968087","name":"Mas Saint-Pierre","town":"Montpellier","lines":[]}},{"Place Carnot":{"id":"74400539","lat":"43.603602897587","lon":"3.88418440582361","name":"Place Carnot","town":"Montpellier","lines":[]}},{"Place Strasbourg":{"id":"74400533","lat":"43.6031881586457","lon":"3.88007437994248","name":"Place de Strasbourg","town":"Montpellier","lines":[]}},{"Saporta":{"id":"74400847","lat":"43.5839059641695","lon":"3.88790096247115","name":"Saporta","town":"Montpellier","lines":[]}},{"Tournezy":{"id":"74400854","lat":"43.578944103084","lon":"3.87813367656074","name":"Tournezy","town":"Montpellier","lines":[]}}]}}